{"_id":{"$oid":"562773efe4656ff0d498139f"},"nom":"Ain","numero":1,"prefecture":{"latitude":46.2,"longitude":5.216667,"nom":"Bourg-en-Bresse"},"region":{"capitale":{"latitude":45.74866,"longitude":4.84671,"nom":"Lyon"},"nom":"Rhône-Alpes","numero":82}}
{"_id":{"$oid":"562773efe4656ff0d49813a0"},"nom":"Aisne","numero":2,"prefecture":{"latitude":49.566667,"longitude":3.616667,"nom":"Laon"},"region":{"capitale":{"latitude":49.9,"longitude":2.3,"nom":"Amiens"},"nom":"Picardie","numero":22}}
{"_id":{"$oid":"562773efe4656ff0d49813a1"},"nom":"Allier","numero":3,"prefecture":{"latitude":46.566667,"longitude":3.333333,"nom":"Moulins"},"region":{"capitale":{"latitude":45.783333,"longitude":3.083333,"nom":"Clermont-Ferrand"},"nom":"Auvergne","numero":83}}
{"_id":{"$oid":"562773efe4656ff0d49813a2"},"nom":"Alpes-de-Haute-Provence","numero":4,"prefecture":{"latitude":44.09,"longitude":6.24,"nom":"Digne-les-Bains"},"region":{"capitale":{"latitude":43.2965,"longitude":5.38107,"nom":"Marseille"},"nom":"Provence-Alpes-Côte d'Azur","numero":93}}
{"_id":{"$oid":"562773efe4656ff0d49813a3"},"nom":"Hautes-Alpes","numero":5,"prefecture":{"latitude":44.566667,"longitude":6.083333,"nom":"Gap"},"region":{"capitale":{"latitude":43.2965,"longitude":5.38107,"nom":"Marseille"},"nom":"Provence-Alpes-Côte d'Azur","numero":93}}
{"_id":{"$oid":"562773efe4656ff0d49813a4"},"nom":"Alpes-Maritimes","numero":6,"prefecture":{"latitude":43.7,"longitude":7.25,"nom":"Nice"},"region":{"capitale":{"latitude":43.2965,"longitude":5.38107,"nom":"Marseille"},"nom":"Provence-Alpes-Côte d'Azur","numero":93}}
{"_id":{"$oid":"562773efe4656ff0d49813a5"},"nom":"Ardèche","numero":7,"prefecture":{"latitude":44.733333,"longitude":4.6,"nom":"Privas"},"region":{"capitale":{"latitude":45.74866,"longitude":4.84671,"nom":"Lyon"},"nom":"Rhône-Alpes","numero":82}}
{"_id":{"$oid":"562773efe4656ff0d49813a6"},"nom":"Ardennes","numero":8,"prefecture":{"latitude":49.766667,"longitude":4.716667,"nom":"Charleville-Mézières"},"region":{"capitale":{"latitude":48.958333,"longitude":4.366667,"nom":"Châlons-en-Champagne"},"nom":"Champagne-Ardenne","numero":21}}
{"_id":{"$oid":"562773efe4656ff0d49813a7"},"nom":"Ariège","numero":9,"prefecture":{"latitude":42.966667,"longitude":1.6,"nom":"Foix"},"region":{"capitale":{"latitude":43.6,"longitude":1.433333,"nom":"Toulouse"},"nom":"Midi-Pyrénées","numero":73}}
{"_id":{"$oid":"562773efe4656ff0d49813a8"},"nom":"Aube","numero":10,"prefecture":{"latitude":48.3,"longitude":4.083333,"nom":"Troyes"},"region":{"capitale":{"latitude":48.958333,"longitude":4.366667,"nom":"Châlons-en-Champagne"},"nom":"Champagne-Ardenne","numero":21}}
{"_id":{"$oid":"562773efe4656ff0d49813a9"},"nom":"Aude","numero":11,"prefecture":{"latitude":43.216667,"longitude":2.35,"nom":"Carcassonne"},"region":{"capitale":{"latitude":43.6,"longitude":3.883333,"nom":"Montpellier"},"nom":"Languedoc-Roussillon","numero":91}}
{"_id":{"$oid":"562773efe4656ff0d49813aa"},"nom":"Aveyron","numero":12,"prefecture":{"latitude":44.333333,"longitude":2.566667,"nom":"Rodez"},"region":{"capitale":{"latitude":43.6,"longitude":1.433333,"nom":"Toulouse"},"nom":"Midi-Pyrénées","numero":73}}
{"_id":{"$oid":"562773efe4656ff0d49813ab"},"nom":"Bouches-du-Rhône","numero":13,"prefecture":{"latitude":43.2965,"longitude":5.38107,"nom":"Marseille"},"region":{"capitale":{"latitude":43.2965,"longitude":5.38107,"nom":"Marseille"},"nom":"Provence-Alpes-Côte d'Azur","numero":93}}
{"_id":{"$oid":"562773efe4656ff0d49813ac"},"nom":"Calvados","numero":14,"prefecture":{"latitude":49.183333,"longitude":-0.35,"nom":"Caen"},"region":{"capitale":{"latitude":49.183333,"longitude":-0.35,"nom":"Caen"},"nom":"Basse-Normandie","numero":25}}
{"_id":{"$oid":"562773efe4656ff0d49813ad"},"nom":"Cantal","numero":15,"prefecture":{"latitude":44.916667,"longitude":2.45,"nom":"Aurillac"},"region":{"capitale":{"latitude":45.783333,"longitude":3.083333,"nom":"Clermont-Ferrand"},"nom":"Auvergne","numero":83}}
{"_id":{"$oid":"562773efe4656ff0d49813ae"},"nom":"Charente","numero":16,"prefecture":{"latitude":45.65,"longitude":0.15,"nom":"Angoulême"},"region":{"capitale":{"latitude":46.583333,"longitude":0.333333,"nom":"Poitiers"},"nom":"Poitou-Charentes","numero":54}}
{"_id":{"$oid":"562773efe4656ff0d49813af"},"nom":"Charente-Maritime","numero":17,"prefecture":{"latitude":46.166667,"longitude":-1.15,"nom":"La Rochelle"},"region":{"capitale":{"latitude":46.583333,"longitude":0.333333,"nom":"Poitiers"},"nom":"Poitou-Charentes","numero":54}}
{"_id":{"$oid":"562773efe4656ff0d49813b0"},"nom":"Cher","numero":18,"prefecture":{"latitude":47.083333,"longitude":2.4,"nom":"Bourges"},"region":{"capitale":{"latitude":47.916667,"longitude":1.9,"nom":"Orléans"},"nom":"Centre","numero":24}}
{"_id":{"$oid":"562773efe4656ff0d49813b1"},"nom":"Corrèze","numero":19,"prefecture":{"latitude":45.266667,"longitude":1.766667,"nom":"Tulle"},"region":{"capitale":{"latitude":45.85,"longitude":1.25,"nom":"Limoges"},"nom":"Limousin","numero":74}}
{"_id":{"$oid":"562773efe4656ff0d49813b2"},"nom":"Corse du Sud","numero":"2A","prefecture":{"latitude":41.983333,"longitude":8.8,"nom":"Ajaccio"},"region":{"capitale":{"latitude":41.983333,"longitude":8.8,"nom":"Ajaccio"},"nom":"Corse","numero":94}}
{"_id":{"$oid":"562773efe4656ff0d49813b3"},"nom":"Haute Corse","numero":"2B","prefecture":{"latitude":42.7,"longitude":9.45,"nom":"Bastia"},"region":{"capitale":{"latitude":41.983333,"longitude":8.8,"nom":"Ajaccio"},"nom":"Corse","numero":94}}
{"_id":{"$oid":"562773efe4656ff0d49813b4"},"nom":"Côte-d’Or","numero":21,"prefecture":{"latitude":47.316667,"longitude":5.016667,"nom":"Dijon"},"region":{"capitale":{"latitude":47.316667,"longitude":5.016667,"nom":"Dijon"},"nom":"Bourgogne","numero":26}}
{"_id":{"$oid":"562773efe4656ff0d49813b5"},"nom":"Côtes-d'Armor","numero":22,"prefecture":{"latitude":48.516667,"longitude":-2.783333,"nom":"Saint-Brieuc"},"region":{"capitale":{"latitude":48.083333,"longitude":-1.683333,"nom":"Rennes"},"nom":"Bretagne","numero":53}}
{"_id":{"$oid":"562773efe4656ff0d49813b6"},"nom":"Creuse","numero":23,"prefecture":{"latitude":46.166667,"longitude":1.866667,"nom":"Guéret"},"region":{"capitale":{"latitude":45.85,"longitude":1.25,"nom":"Limoges"},"nom":"Limousin","numero":74}}
{"_id":{"$oid":"562773efe4656ff0d49813b7"},"nom":"Dordogne","numero":24,"prefecture":{"latitude":45.183333,"longitude":0.716667,"nom":"Périgueux"},"region":{"capitale":{"latitude":44.833333,"longitude":-0.566667,"nom":"Bordeaux"},"nom":"Aquitaine","numero":72}}
{"_id":{"$oid":"562773efe4656ff0d49813b8"},"nom":"Doubs","numero":25,"prefecture":{"latitude":47.25,"longitude":6.033333,"nom":"Besançon"},"region":{"capitale":{"latitude":47.25,"longitude":6.033333,"nom":"Besançon"},"nom":"Franche-Comté","numero":43}}
{"_id":{"$oid":"562773efe4656ff0d49813b9"},"nom":"Drôme","numero":26,"prefecture":{"latitude":44.933333,"longitude":4.9,"nom":"Valence"},"region":{"capitale":{"latitude":45.74866,"longitude":4.84671,"nom":"Lyon"},"nom":"Rhône-Alpes","numero":82}}
{"_id":{"$oid":"562773efe4656ff0d49813ba"},"nom":"Eure","numero":27,"prefecture":{"latitude":49.016667,"longitude":1.15,"nom":"Evreux"},"region":{"capitale":{"latitude":49.433333,"longitude":1.083333,"nom":"Rouen"},"nom":"Haute-Normandie","numero":23}}
{"_id":{"$oid":"562773efe4656ff0d49813bb"},"nom":"Eure-et-Loir","numero":28,"prefecture":{"latitude":48.45,"longitude":1.5,"nom":"Chartres"},"region":{"capitale":{"latitude":47.916667,"longitude":1.9,"nom":"Orléans"},"nom":"Centre","numero":24}}
{"_id":{"$oid":"562773efe4656ff0d49813bc"},"nom":"Finistère","numero":29,"prefecture":{"latitude":48,"longitude":-4.1,"nom":"Quimper"},"region":{"capitale":{"latitude":48.083333,"longitude":-1.683333,"nom":"Rennes"},"nom":"Bretagne","numero":53}}
{"_id":{"$oid":"562773efe4656ff0d49813bd"},"nom":"Gard","numero":30,"prefecture":{"latitude":43.833333,"longitude":4.35,"nom":"Nîmes"},"region":{"capitale":{"latitude":43.6,"longitude":3.883333,"nom":"Montpellier"},"nom":"Languedoc-Roussillon","numero":91}}
{"_id":{"$oid":"562773efe4656ff0d49813be"},"nom":"Haute-Garonne","numero":31,"prefecture":{"latitude":43.6,"longitude":1.433333,"nom":"Toulouse"},"region":{"capitale":{"latitude":43.6,"longitude":1.433333,"nom":"Toulouse"},"nom":"Midi-Pyrénées","numero":73}}
{"_id":{"$oid":"562773efe4656ff0d49813bf"},"nom":"Gers","numero":32,"prefecture":{"latitude":43.65,"longitude":0.583333,"nom":"Auch"},"region":{"capitale":{"latitude":43.6,"longitude":1.433333,"nom":"Toulouse"},"nom":"Midi-Pyrénées","numero":73}}
{"_id":{"$oid":"562773efe4656ff0d49813c0"},"nom":"Gironde","numero":33,"prefecture":{"latitude":44.833333,"longitude":-0.566667,"nom":"Bordeaux"},"region":{"capitale":{"latitude":44.833333,"longitude":-0.566667,"nom":"Bordeaux"},"nom":"Aquitaine","numero":72}}
{"_id":{"$oid":"562773efe4656ff0d49813c1"},"nom":"Hérault","numero":34,"prefecture":{"latitude":43.6,"longitude":3.883333,"nom":"Montpellier"},"region":{"capitale":{"latitude":43.6,"longitude":3.883333,"nom":"Montpellier"},"nom":"Languedoc-Roussillon","numero":91}}
{"_id":{"$oid":"562773efe4656ff0d49813c2"},"nom":"Ille-et-Vilaine","numero":35,"prefecture":{"latitude":48.083333,"longitude":-1.683333,"nom":"Rennes"},"region":{"capitale":{"latitude":48.083333,"longitude":-1.683333,"nom":"Rennes"},"nom":"Bretagne","numero":53}}
{"_id":{"$oid":"562773efe4656ff0d49813c3"},"nom":"Indre","numero":36,"prefecture":{"latitude":46.816667,"longitude":1.7,"nom":"Châteauroux"},"region":{"capitale":{"latitude":47.916667,"longitude":1.9,"nom":"Orléans"},"nom":"Centre","numero":24}}
{"_id":{"$oid":"562773efe4656ff0d49813c4"},"nom":"Indre-et-Loire","numero":37,"prefecture":{"latitude":47.383333,"longitude":0.683333,"nom":"Tours"},"region":{"capitale":{"latitude":47.916667,"longitude":1.9,"nom":"Orléans"},"nom":"Centre","numero":24}}
{"_id":{"$oid":"562773efe4656ff0d49813c5"},"nom":"Isère","numero":38,"prefecture":{"latitude":45.166667,"longitude":5.716667,"nom":"Grenoble"},"region":{"capitale":{"latitude":45.74866,"longitude":4.84671,"nom":"Lyon"},"nom":"Rhône-Alpes","numero":82}}
{"_id":{"$oid":"562773efe4656ff0d49813c6"},"nom":"Jura","numero":39,"prefecture":{"latitude":46.666667,"longitude":5.55,"nom":"Lons-le-Saunier"},"region":{"capitale":{"latitude":47.25,"longitude":6.033333,"nom":"Besançon"},"nom":"Franche-Comté","numero":43}}
{"_id":{"$oid":"562773efe4656ff0d49813c7"},"nom":"Landes","numero":40,"prefecture":{"latitude":43.883333,"longitude":-0.5,"nom":"Mont-de-Marsan"},"region":{"capitale":{"latitude":44.833333,"longitude":-0.566667,"nom":"Bordeaux"},"nom":"Aquitaine","numero":72}}
{"_id":{"$oid":"562773efe4656ff0d49813c8"},"nom":"Loir-et-Cher","numero":41,"prefecture":{"latitude":47.583333,"longitude":1.333333,"nom":"Blois"},"region":{"capitale":{"latitude":47.916667,"longitude":1.9,"nom":"Orléans"},"nom":"Centre","numero":24}}
{"_id":{"$oid":"562773efe4656ff0d49813c9"},"nom":"Loire","numero":42,"prefecture":{"latitude":45.433333,"longitude":4.4,"nom":"Saint-Etienne"},"region":{"capitale":{"latitude":45.74866,"longitude":4.84671,"nom":"Lyon"},"nom":"Rhône-Alpes","numero":82}}
{"_id":{"$oid":"562773efe4656ff0d49813ca"},"nom":"Haute-Loire","numero":43,"prefecture":{"latitude":45.04,"longitude":3.89,"nom":"Le Puy-en-Velay"},"region":{"capitale":{"latitude":45.783333,"longitude":3.083333,"nom":"Clermont-Ferrand"},"nom":"Auvergne","numero":83}}
{"_id":{"$oid":"562773efe4656ff0d49813cb"},"nom":"Loire-Atlantique","numero":44,"prefecture":{"latitude":47.216667,"longitude":-1.55,"nom":"Nantes"},"region":{"capitale":{"latitude":47.216667,"longitude":-1.55,"nom":"Nantes"},"nom":"Pays de la Loire","numero":52}}
{"_id":{"$oid":"562773efe4656ff0d49813cc"},"nom":"Loiret","numero":45,"prefecture":{"latitude":47.916667,"longitude":1.9,"nom":"Orléans"},"region":{"capitale":{"latitude":47.916667,"longitude":1.9,"nom":"Orléans"},"nom":"Centre","numero":24}}
{"_id":{"$oid":"562773efe4656ff0d49813cd"},"nom":"Lot","numero":46,"prefecture":{"latitude":44.433333,"longitude":1.433333,"nom":"Cahors"},"region":{"capitale":{"latitude":43.6,"longitude":1.433333,"nom":"Toulouse"},"nom":"Midi-Pyrénées","numero":73}}
{"_id":{"$oid":"562773efe4656ff0d49813ce"},"nom":"Lot-et-Garonne","numero":47,"prefecture":{"latitude":44.2,"longitude":0.633333,"nom":"Agen"},"region":{"capitale":{"latitude":44.833333,"longitude":-0.566667,"nom":"Bordeaux"},"nom":"Aquitaine","numero":72}}
{"_id":{"$oid":"562773efe4656ff0d49813cf"},"nom":"Lozère","numero":48,"prefecture":{"latitude":44.516667,"longitude":3.5,"nom":"Mende"},"region":{"capitale":{"latitude":43.6,"longitude":3.883333,"nom":"Montpellier"},"nom":"Languedoc-Roussillon","numero":91}}
{"_id":{"$oid":"562773efe4656ff0d49813d0"},"nom":"Maine-et-Loire","numero":49,"prefecture":{"latitude":47.466667,"longitude":-0.55,"nom":"Angers"},"region":{"capitale":{"latitude":47.216667,"longitude":-1.55,"nom":"Nantes"},"nom":"Pays de la Loire","numero":52}}
{"_id":{"$oid":"562773efe4656ff0d49813d1"},"nom":"Manche","numero":50,"prefecture":{"latitude":49.116667,"longitude":-1.083333,"nom":"Saint-Lô"},"region":{"capitale":{"latitude":49.183333,"longitude":-0.35,"nom":"Caen"},"nom":"Basse-Normandie","numero":25}}
{"_id":{"$oid":"562773efe4656ff0d49813d2"},"nom":"Marne","numero":51,"prefecture":{"latitude":48.958333,"longitude":4.366667,"nom":"Châlons-en-Champagne"},"region":{"capitale":{"latitude":48.958333,"longitude":4.366667,"nom":"Châlons-en-Champagne"},"nom":"Champagne-Ardenne","numero":21}}
{"_id":{"$oid":"562773efe4656ff0d49813d3"},"nom":"Haute-Marne","numero":52,"prefecture":{"latitude":48.116667,"longitude":5.133333,"nom":"Chaumont"},"region":{"capitale":{"latitude":48.958333,"longitude":4.366667,"nom":"Châlons-en-Champagne"},"nom":"Champagne-Ardenne","numero":21}}
{"_id":{"$oid":"562773efe4656ff0d49813d4"},"nom":"Mayenne","numero":53,"prefecture":{"latitude":48.066667,"longitude":-0.766667,"nom":"Laval"},"region":{"capitale":{"latitude":47.216667,"longitude":-1.55,"nom":"Nantes"},"nom":"Pays de la Loire","numero":52}}
{"_id":{"$oid":"562773efe4656ff0d49813d5"},"nom":"Meurthe-et-Moselle","numero":54,"prefecture":{"latitude":48.683333,"longitude":6.2,"nom":"Nancy"},"region":{"capitale":{"latitude":49.133333,"longitude":6.166667,"nom":"Metz"},"nom":"Lorraine","numero":41}}
{"_id":{"$oid":"562773efe4656ff0d49813d6"},"nom":"Meuse","numero":55,"prefecture":{"latitude":48.783333,"longitude":5.166667,"nom":"Bar-le-Duc"},"region":{"capitale":{"latitude":49.133333,"longitude":6.166667,"nom":"Metz"},"nom":"Lorraine","numero":41}}
{"_id":{"$oid":"562773efe4656ff0d49813d7"},"nom":"Morbihan","numero":56,"prefecture":{"latitude":47.666667,"longitude":-2.75,"nom":"Vannes"},"region":{"capitale":{"latitude":48.083333,"longitude":-1.683333,"nom":"Rennes"},"nom":"Bretagne","numero":53}}
{"_id":{"$oid":"562773efe4656ff0d49813d8"},"nom":"Moselle","numero":57,"prefecture":{"latitude":49.133333,"longitude":6.166667,"nom":"Metz"},"region":{"capitale":{"latitude":49.133333,"longitude":6.166667,"nom":"Metz"},"nom":"Lorraine","numero":41}}
{"_id":{"$oid":"562773efe4656ff0d49813d9"},"nom":"Nièvre","numero":58,"prefecture":{"latitude":46.983333,"longitude":3.166667,"nom":"Nevers"},"region":{"capitale":{"latitude":47.316667,"longitude":5.016667,"nom":"Dijon"},"nom":"Bourgogne","numero":26}}
{"_id":{"$oid":"562773efe4656ff0d49813da"},"nom":"Nord","numero":59,"prefecture":{"latitude":50.633333,"longitude":3.066667,"nom":"Lille"},"region":{"capitale":{"latitude":50.633333,"longitude":3.066667,"nom":"Lille"},"nom":"Nord-Pas-de-Calais","numero":31}}
{"_id":{"$oid":"562773efe4656ff0d49813db"},"nom":"Oise","numero":60,"prefecture":{"latitude":49.433333,"longitude":2.083333,"nom":"Beauvais"},"region":{"capitale":{"latitude":49.9,"longitude":2.3,"nom":"Amiens"},"nom":"Picardie","numero":22}}
{"_id":{"$oid":"562773efe4656ff0d49813dc"},"nom":"Orne","numero":61,"prefecture":{"latitude":48.433333,"longitude":0.083333,"nom":"Alençon"},"region":{"capitale":{"latitude":49.183333,"longitude":-0.35,"nom":"Caen"},"nom":"Basse-Normandie","numero":25}}
{"_id":{"$oid":"562773efe4656ff0d49813dd"},"nom":"Pas-de-Calais","numero":62,"prefecture":{"latitude":50.283333,"longitude":2.783333,"nom":"Arras"},"region":{"capitale":{"latitude":50.633333,"longitude":3.066667,"nom":"Lille"},"nom":"Nord-Pas-de-Calais","numero":31}}
{"_id":{"$oid":"562773efe4656ff0d49813de"},"nom":"Puy-de-Dôme","numero":63,"prefecture":{"latitude":45.783333,"longitude":3.083333,"nom":"Clermont-Ferrand"},"region":{"capitale":{"latitude":45.783333,"longitude":3.083333,"nom":"Clermont-Ferrand"},"nom":"Auvergne","numero":83}}
{"_id":{"$oid":"562773efe4656ff0d49813df"},"nom":"Pyrénées-Atlantiques","numero":64,"prefecture":{"latitude":43.3,"longitude":-0.366667,"nom":"Pau"},"region":{"capitale":{"latitude":44.833333,"longitude":-0.566667,"nom":"Bordeaux"},"nom":"Aquitaine","numero":72}}
{"_id":{"$oid":"562773efe4656ff0d49813e0"},"nom":"Hautes-Pyrénées","numero":65,"prefecture":{"latitude":43.233333,"longitude":0.083333,"nom":"Tarbes"},"region":{"capitale":{"latitude":43.6,"longitude":1.433333,"nom":"Toulouse"},"nom":"Midi-Pyrénées","numero":73}}
{"_id":{"$oid":"562773efe4656ff0d49813e1"},"nom":"Pyrénées-Orientales","numero":66,"prefecture":{"latitude":42.683333,"longitude":2.883333,"nom":"Perpignan"},"region":{"capitale":{"latitude":43.6,"longitude":3.883333,"nom":"Montpellier"},"nom":"Languedoc-Roussillon","numero":91}}
{"_id":{"$oid":"562773efe4656ff0d49813e2"},"nom":"Bas-Rhin","numero":67,"prefecture":{"latitude":48.583333,"longitude":7.75,"nom":"Strasbourg"},"region":{"capitale":{"latitude":48.583333,"longitude":7.75,"nom":"Strasbourg"},"nom":"Alsace","numero":42}}
{"_id":{"$oid":"562773efe4656ff0d49813e3"},"nom":"Haut-Rhin","numero":68,"prefecture":{"latitude":48.083333,"longitude":7.366667,"nom":"Colmar"},"region":{"capitale":{"latitude":48.583333,"longitude":7.75,"nom":"Strasbourg"},"nom":"Alsace","numero":42}}
{"_id":{"$oid":"562773efe4656ff0d49813e4"},"nom":"Rhône","numero":69,"prefecture":{"latitude":45.74866,"longitude":4.84671,"nom":"Lyon"},"region":{"capitale":{"latitude":45.74866,"longitude":4.84671,"nom":"Lyon"},"nom":"Rhône-Alpes","numero":82}}
{"_id":{"$oid":"562773efe4656ff0d49813e5"},"nom":"Haute-Saône","numero":70,"prefecture":{"latitude":47.633333,"longitude":6.166667,"nom":"Vesoul"},"region":{"capitale":{"latitude":47.25,"longitude":6.033333,"nom":"Besançon"},"nom":"Franche-Comté","numero":43}}
{"_id":{"$oid":"562773efe4656ff0d49813e6"},"nom":"Saône-et-Loire","numero":71,"prefecture":{"latitude":46.3,"longitude":4.833333,"nom":"Mâcon"},"region":{"capitale":{"latitude":47.316667,"longitude":5.016667,"nom":"Dijon"},"nom":"Bourgogne","numero":26}}
{"_id":{"$oid":"562773efe4656ff0d49813e7"},"nom":"Sarthe","numero":72,"prefecture":{"latitude":48,"longitude":0.2,"nom":"Le Mans"},"region":{"capitale":{"latitude":47.216667,"longitude":-1.55,"nom":"Nantes"},"nom":"Pays de la Loire","numero":52}}
{"_id":{"$oid":"562773efe4656ff0d49813e8"},"nom":"Savoie","numero":73,"prefecture":{"latitude":45.566667,"longitude":5.933333,"nom":"Chambéry"},"region":{"capitale":{"latitude":45.74866,"longitude":4.84671,"nom":"Lyon"},"nom":"Rhône-Alpes","numero":82}}
{"_id":{"$oid":"562773efe4656ff0d49813e9"},"nom":"Haute-Savoie","numero":74,"prefecture":{"latitude":45.9,"longitude":6.116667,"nom":"Annecy"},"region":{"capitale":{"latitude":45.74866,"longitude":4.84671,"nom":"Lyon"},"nom":"Rhône-Alpes","numero":82}}
{"_id":{"$oid":"562773efe4656ff0d49813ea"},"nom":"Paris","numero":75,"prefecture":{"latitude":48.85341,"longitude":2.3488,"nom":"Paris"},"region":{"capitale":{"latitude":48.85341,"longitude":2.3488,"nom":"Paris"},"nom":"Île-de-France","numero":11}}
{"_id":{"$oid":"562773efe4656ff0d49813eb"},"nom":"Seine-Maritime","numero":76,"prefecture":{"latitude":49.433333,"longitude":1.083333,"nom":"Rouen"},"region":{"capitale":{"latitude":49.433333,"longitude":1.083333,"nom":"Rouen"},"nom":"Haute-Normandie","numero":23}}
{"_id":{"$oid":"562773efe4656ff0d49813ec"},"nom":"Seine-et-Marne","numero":77,"prefecture":{"latitude":48.533333,"longitude":2.666667,"nom":"Melun"},"region":{"capitale":{"latitude":48.85341,"longitude":2.3488,"nom":"Paris"},"nom":"Île-de-France","numero":11}}
{"_id":{"$oid":"562773efe4656ff0d49813ed"},"nom":"Yvelines","numero":78,"prefecture":{"latitude":48.8,"longitude":2.133333,"nom":"Versailles"},"region":{"capitale":{"latitude":48.85341,"longitude":2.3488,"nom":"Paris"},"nom":"Île-de-France","numero":11}}
{"_id":{"$oid":"562773efe4656ff0d49813ee"},"nom":"Deux-Sèvres","numero":79,"prefecture":{"latitude":46.316667,"longitude":-0.466667,"nom":"Niort"},"region":{"capitale":{"latitude":46.583333,"longitude":0.333333,"nom":"Poitiers"},"nom":"Poitou-Charentes","numero":54}}
{"_id":{"$oid":"562773efe4656ff0d49813ef"},"nom":"Somme","numero":80,"prefecture":{"latitude":49.9,"longitude":2.3,"nom":"Amiens"},"region":{"capitale":{"latitude":49.9,"longitude":2.3,"nom":"Amiens"},"nom":"Picardie","numero":22}}
{"_id":{"$oid":"562773efe4656ff0d49813f0"},"nom":"Tarn","numero":81,"prefecture":{"latitude":43.933333,"longitude":2.15,"nom":"Albi"},"region":{"capitale":{"latitude":43.6,"longitude":1.433333,"nom":"Toulouse"},"nom":"Midi-Pyrénées","numero":73}}
{"_id":{"$oid":"562773efe4656ff0d49813f1"},"nom":"Tarn-et-Garonne","numero":82,"prefecture":{"latitude":44.016667,"longitude":1.35,"nom":"Montauban"},"region":{"capitale":{"latitude":43.6,"longitude":1.433333,"nom":"Toulouse"},"nom":"Midi-Pyrénées","numero":73}}
{"_id":{"$oid":"562773efe4656ff0d49813f2"},"nom":"Var","numero":83,"prefecture":{"latitude":43.116667,"longitude":5.933333,"nom":"Toulon"},"region":{"capitale":{"latitude":43.2965,"longitude":5.38107,"nom":"Marseille"},"nom":"Provence-Alpes-Côte d'Azur","numero":93}}
{"_id":{"$oid":"562773efe4656ff0d49813f3"},"nom":"Vaucluse","numero":84,"prefecture":{"latitude":43.95,"longitude":4.816667,"nom":"Avignon"},"region":{"capitale":{"latitude":43.2965,"longitude":5.38107,"nom":"Marseille"},"nom":"Provence-Alpes-Côte d'Azur","numero":93}}
{"_id":{"$oid":"562773efe4656ff0d49813f4"},"nom":"Vendée","numero":85,"prefecture":{"latitude":46.666667,"longitude":-1.433333,"nom":"La Roche-sur-Yon"},"region":{"capitale":{"latitude":47.216667,"longitude":-1.55,"nom":"Nantes"},"nom":"Pays de la Loire","numero":52}}
{"_id":{"$oid":"562773efe4656ff0d49813f5"},"nom":"Vienne","numero":86,"prefecture":{"latitude":46.583333,"longitude":0.333333,"nom":"Poitiers"},"region":{"capitale":{"latitude":46.583333,"longitude":0.333333,"nom":"Poitiers"},"nom":"Poitou-Charentes","numero":54}}
{"_id":{"$oid":"562773efe4656ff0d49813f6"},"nom":"Haute-Vienne","numero":87,"prefecture":{"latitude":45.85,"longitude":1.25,"nom":"Limoges"},"region":{"capitale":{"latitude":45.85,"longitude":1.25,"nom":"Limoges"},"nom":"Limousin","numero":74}}
{"_id":{"$oid":"562773efe4656ff0d49813f7"},"nom":"Vosges","numero":88,"prefecture":{"latitude":48.183333,"longitude":6.45,"nom":"Epinal"},"region":{"capitale":{"latitude":49.133333,"longitude":6.166667,"nom":"Metz"},"nom":"Lorraine","numero":41}}
{"_id":{"$oid":"562773efe4656ff0d49813f8"},"nom":"Yonne","numero":89,"prefecture":{"latitude":47.8,"longitude":3.566667,"nom":"Auxerre"},"region":{"capitale":{"latitude":47.316667,"longitude":5.016667,"nom":"Dijon"},"nom":"Bourgogne","numero":26}}
{"_id":{"$oid":"562773efe4656ff0d49813f9"},"nom":"Territoire-de-Belfort","numero":90,"prefecture":{"latitude":47.633333,"longitude":6.866667,"nom":"Belfort"},"region":{"capitale":{"latitude":47.25,"longitude":6.033333,"nom":"Besançon"},"nom":"Franche-Comté","numero":43}}
{"_id":{"$oid":"562773efe4656ff0d49813fa"},"nom":"Essonne","numero":91,"prefecture":{"latitude":48.633333,"longitude":2.45,"nom":"Evry"},"region":{"capitale":{"latitude":48.85341,"longitude":2.3488,"nom":"Paris"},"nom":"Île-de-France","numero":11}}
{"_id":{"$oid":"562773efe4656ff0d49813fb"},"nom":"Hauts-de-Seine","numero":92,"prefecture":{"latitude":48.9,"longitude":2.2,"nom":"Nanterre"},"region":{"capitale":{"latitude":48.85341,"longitude":2.3488,"nom":"Paris"},"nom":"Île-de-France","numero":11}}
{"_id":{"$oid":"562773efe4656ff0d49813fc"},"nom":"Seine-St-Denis","numero":93,"prefecture":{"latitude":48.9,"longitude":2.45,"nom":"Bobigny"},"region":{"capitale":{"latitude":48.85341,"longitude":2.3488,"nom":"Paris"},"nom":"Île-de-France","numero":11}}
{"_id":{"$oid":"562773efe4656ff0d49813fd"},"nom":"Val-de-Marne","numero":94,"prefecture":{"latitude":48.783333,"longitude":2.466667,"nom":"Créteil"},"region":{"capitale":{"latitude":48.85341,"longitude":2.3488,"nom":"Paris"},"nom":"Île-de-France","numero":11}}
{"_id":{"$oid":"562773efe4656ff0d49813fe"},"nom":"Val-d’Oise","numero":95,"prefecture":{"latitude":49.05,"longitude":2.1,"nom":"Pontoise"},"region":{"capitale":{"latitude":48.85341,"longitude":2.3488,"nom":"Paris"},"nom":"Île-de-France","numero":11}}
{"_id":{"$oid":"562773efe4656ff0d49813ff"},"nom":"Guadeloupe","numero":971,"prefecture":{"nom":"Basse-Terre"},"region":{"capitale":{"nom":"Basse-Terre"},"nom":"Guadeloupe","numero":1}}
{"_id":{"$oid":"562773efe4656ff0d4981400"},"nom":"Martinique","numero":972,"prefecture":{"nom":"Fort-de-France"},"region":{"capitale":{"nom":"Fort-de-France"},"nom":"Martinique","numero":2}}
{"_id":{"$oid":"562773efe4656ff0d4981401"},"nom":"Guyane","numero":973,"prefecture":{"nom":"Cayenne"},"region":{"capitale":{"nom":"Cayenne"},"nom":"Guyane","numero":3}}
{"_id":{"$oid":"562773efe4656ff0d4981402"},"nom":"Réunion","numero":974,"prefecture":{"nom":"Saint-Denis"},"region":{"capitale":{"latitude":43.366667,"longitude":2.216667,"nom":"Saint-Denis"},"nom":"La Réunion","numero":4}}
{"_id":{"$oid":"562773efe4656ff0d4981403"},"nom":"Mayotte","numero":976,"prefecture":{"nom":"DZAOUDZI"},"region":{"capitale":{"nom":"Mamoudzou"},"nom":"Mayotte","numero":5}}
